{
  "pins": [
    {
      "id": "1768946582134",
      "lat": 29.568850121079137,
      "lon": 30.599407244283867,
      "title": "irl stream inside the Great Pyramids ğŸ‡ªğŸ‡¬ğŸªğŸ‘‘ (Egypt)",
      "videoLink": "https://www.youtube.com/watch?v=hRQq_MG7RIk",
      "date": "2026-01-15",
      "emoji": "ğŸ“",
      "flagCode": "EG",
      "locationId": "EGY"
    },
    {
      "id": "1768947490439",
      "lat": 31.088494985507843,
      "lon": -8.12909331670653,
      "title": "irl stream in Marrakech, Morocco ğŸ‡²ğŸ‡¦",
      "videoLink": "https://www.youtube.com/watch?v=8saTwDjDzSM",
      "date": "2026-01-19",
      "emoji": "ğŸ“",
      "flagCode": "MA",
      "locationId": "MAR"
    },
    {
      "id": "1768947768724",
      "lat": -0.9884863832304102,
      "lon": 34.97025143062149,
      "title": "irl Safari and Tribe stream in Maasai MarağŸ¦ğŸ˜ (Kenya)",
      "videoLink": "https://www.youtube.com/watch?v=yyqx8-5S2BU",
      "date": "2026-01-12",
      "emoji": "ğŸ“",
      "flagCode": "KE",
      "locationId": "KEN"
    },
    {
      "id": "1768947945708",
      "lat": -24.6470979423851,
      "lon": 25.843940973480045,
      "title": "irl stream in Botswana ğŸ‡§ğŸ‡¼ pt. 2 (Gaborone)",
      "videoLink": "https://www.youtube.com/watch?v=e3GDwgTJUl4",
      "date": "2026-01-06",
      "emoji": "ğŸ“",
      "flagCode": "BW",
      "locationId": "BWA"
    },
    {
      "id": "1768948036261",
      "lat": -19.271263205085198,
      "lon": 22.619520411639115,
      "title": "irl Safari stream in Okavango DeltağŸ˜ğŸ¦’ğŸ¦(Botswana)",
      "videoLink": "https://www.youtube.com/watch?v=hcmi-ejMj7s",
      "date": "2026-01-05",
      "emoji": "ğŸ“",
      "flagCode": "BW",
      "locationId": "BWA"
    },
    {
      "id": "1768948375328",
      "lat": -33.89660773929911,
      "lon": 18.3566005202087,
      "title": "irl Shark Diving stream in South Africa ğŸ¦ˆ",
      "videoLink": "https://www.youtube.com/watch?v=2O7tu4iVFqU",
      "date": "2026-01-01",
      "emoji": "ğŸ“",
      "flagCode": "ZA",
      "locationId": "ZAF"
    },
    {
      "id": "1768948433889",
      "lat": -26.003870385955537,
      "lon": 28.262180132093505,
      "title": "irl stream in South Africa ğŸ‡¿ğŸ‡¦ pt 3 (Johannesburg)",
      "videoLink": "https://www.youtube.com/watch?v=FYxRnfHBzSQ",
      "date": "2026-01-02",
      "emoji": "ğŸ“",
      "flagCode": "ZA",
      "locationId": "ZAF"
    },
    {
      "id": "1768950694268",
      "lat": -33.42433990418027,
      "lon": 18.53871345434075,
      "title": "irl stream in South Africa ğŸ‡¿ğŸ‡¦ (New Years)",
      "videoLink": "https://www.youtube.com/watch?v=2yGZz3Z_p4E",
      "date": "2025-12-31",
      "emoji": "ğŸ“",
      "flagCode": "ZA",
      "locationId": "ZAF"
    },
    {
      "id": "1768950802906",
      "lat": -24.167470130751425,
      "lon": 25.69379873302418,
      "title": "irl stream in Botswana ğŸ‡§ğŸ‡¼ (Gaborone)",
      "videoLink": "https://www.youtube.com/watch?v=EaejFrxXMbY",
      "date": "2026-01-06",
      "emoji": "ğŸ“",
      "flagCode": "BW",
      "locationId": "BWA"
    },
    {
      "id": "1768951649363",
      "lat": -26.35595496534372,
      "lon": 31.126940972390486,
      "title": "irl stream in Eswatini ğŸ‡¸ğŸ‡¿",
      "videoLink": "https://www.youtube.com/watch?v=enuGFi4nABM",
      "date": "2026-01-04",
      "emoji": "ğŸ“",
      "flagCode": "SZ",
      "locationId": "SWZ"
    },
    {
      "id": "1768951801898",
      "lat": -17.70858757619817,
      "lon": 31.283978650939957,
      "title": "irl stream in Zimbabwe ğŸ‡¿ğŸ‡¼",
      "videoLink": "https://www.youtube.com/watch?v=wzKNxjpcZ54",
      "date": "2026-01-07",
      "emoji": "ğŸ“",
      "flagCode": "ZW",
      "locationId": "ZWE"
    },
    {
      "id": "1768951977465",
      "lat": -25.36828148951674,
      "lon": 32.54262823027108,
      "title": "irl stream in Mozambique ğŸ‡²ğŸ‡¿",
      "videoLink": "https://www.youtube.com/watch?v=CkqumomD-Lw",
      "date": "2026-01-03",
      "emoji": "ğŸ“",
      "flagCode": "MZ",
      "locationId": "MOZ"
    },
    {
      "id": "1768952099724",
      "lat": -15.294923754052409,
      "lon": 28.0924659213928,
      "title": "irl stream in Zambia ğŸ‡¿ğŸ‡²",
      "videoLink": "https://www.youtube.com/watch?v=Ux3-hEvl2m4",
      "date": "2026-01-09",
      "emoji": "ğŸ“",
      "flagCode": "ZM",
      "locationId": "ZMB"
    },
    {
      "id": "1768952208312",
      "lat": -9.08112443896382,
      "lon": 13.352044965991183,
      "title": "irl stream in Angola ğŸ‡¦ğŸ‡´",
      "videoLink": "https://www.youtube.com/watch?v=Ez2inQTE_fk",
      "date": "2025-12-29",
      "emoji": "ğŸ“",
      "flagCode": "AO",
      "locationId": "AGO"
    },
    {
      "id": "1768952411116",
      "lat": -1.9477804798468308,
      "lon": 30.13834920604009,
      "title": "irl stream in Rwanda ğŸ‡·ğŸ‡¼",
      "videoLink": "https://www.youtube.com/watch?v=x2rUxwB5Hfc",
      "date": "2026-01-10",
      "emoji": "ğŸ“",
      "flagCode": "RW",
      "locationId": "RWA"
    },
    {
      "id": "1768952539575",
      "lat": -0.948179181398654,
      "lon": 37.085030218966864,
      "title": "irl stream in Kenya ğŸ‡°ğŸ‡ª",
      "videoLink": "https://www.youtube.com/watch?v=tBvT8W8LnZ0",
      "date": "2026-01-11",
      "emoji": "ğŸ“",
      "flagCode": "KE",
      "locationId": "KEN"
    },
    {
      "id": "1768952679724",
      "lat": 9.232607411642338,
      "lon": 38.17731655759795,
      "title": "irl stream in Ethiopia ğŸ‡ªğŸ‡¹",
      "videoLink": "https://www.youtube.com/watch?v=7TdYPqwzdko",
      "date": "2026-01-13",
      "emoji": "ğŸ“",
      "flagCode": "ET",
      "locationId": "ETH"
    },
    {
      "id": "1768952881432",
      "lat": 30.197429024595653,
      "lon": 31.14904401038953,
      "title": "irl stream in Egypt ğŸ‡ªğŸ‡¬",
      "videoLink": "https://www.youtube.com/watch?v=x6-vh91YnuY",
      "date": "2026-01-15",
      "emoji": "ğŸ“",
      "flagCode": "EG",
      "locationId": "EGY"
    },
    {
      "id": "1768953060829",
      "lat": 35.11782198416055,
      "lon": 3.4062623151506557,
      "title": "irl stream in Algeria ğŸ‡©ğŸ‡¿",
      "videoLink": "https://www.youtube.com/watch?v=DomN9Ru37s0",
      "date": "2026-01-17",
      "emoji": "ğŸ“",
      "flagCode": "DZ",
      "locationId": "DZA"
    },
    {
      "id": "1768953138123",
      "lat": 33.677457544636596,
      "lon": -7.074360084530554,
      "title": "irl stream in Morocco ğŸ‡²ğŸ‡¦ SENEGAL VS MOROCCO AFCON FINAL âš½ï¸",
      "videoLink": "https://www.youtube.com/watch?v=GSDx12RcP9o",
      "date": "2026-01-18",
      "emoji": "ğŸ“",
      "flagCode": "MA",
      "locationId": "MAR"
    },
    {
      "id": "1768953230094",
      "lat": 14.644906530693145,
      "lon": -16.86459308917111,
      "title": "irl stream in Senegal ğŸ‡¸ğŸ‡³",
      "videoLink": "https://www.youtube.com/watch?v=SNKIio-1uxE",
      "date": "2026-01-20",
      "emoji": "ğŸ“",
      "flagCode": "SN",
      "locationId": "SEN"
    },
    {
      "id": "1768955641614",
      "lat": 33.92325528325714,
      "lon": -117.90750486663418,
      "title": "irl HALLOWEEN STREAM ğŸƒâ˜ ï¸ ft. Dad & Jamal",
      "videoLink": "https://www.youtube.com/watch?v=uPEXETjo5aw",
      "date": "2025-11-01",
      "emoji": "ğŸ“",
      "flagCode": "US",
      "locationId": "US_California"
    },
    {
      "id": "1769004446455",
      "lat": 6.968092531919462,
      "lon": 3.94494911658893,
      "title": "irl stream in Nigeria ğŸ‡³ğŸ‡¬  (50 million) + (21st birthday)",
      "videoLink": "https://www.youtube.com/watch?v=08Y8GmE3O9s",
      "date": "2026-01-21",
      "emoji": "ğŸ“",
      "flagCode": "NG",
      "locationId": "NGA"
    },
    {
      "id": "1769025288957",
      "lat": 60.04388414251452,
      "lon": 10.362793718310087,
      "title": "irl stream in Norway ğŸ‡³ğŸ‡´",
      "videoLink": "https://www.youtube.com/watch?v=_rgQQ89zND0",
      "date": "2024-07-03",
      "emoji": "ğŸ“",
      "flagCode": "NO",
      "locationId": "NOR"
    },
    {
      "id": "1769025818393",
      "lat": 59.31574576865413,
      "lon": 5.992323778417926,
      "title": "irl stream returning to Norway ğŸ’€ğŸ‡³ğŸ‡´",
      "videoLink": "https://www.youtube.com/watch?v=JMnV1OREFDo",
      "date": "2024-07-14",
      "emoji": "ğŸ“",
      "flagCode": "NO",
      "locationId": "NOR"
    },
    {
      "id": "1769030497856",
      "lat": 13.96749804225731,
      "lon": 100.31765983696937,
      "title": "45 million in Thailand........ ğŸ‡¹ğŸ‡­",
      "videoLink": "https://www.youtube.com/watch?v=VoL8U_UF0do",
      "date": "2025-10-21",
      "emoji": "ğŸ“",
      "flagCode": "TH",
      "locationId": "THA"
    },
    {
      "id": "1769030824274",
      "lat": 24.3202511229719,
      "lon": 47.58428195305112,
      "title": " RETURN STREAM + WATCHING RONALDO PLAY IN SAUDI ğŸğŸ‡¸ğŸ‡¦",
      "videoLink": "https://www.youtube.com/watch?v=_-XB-bJUG4A",
      "date": "2025-10-18",
      "emoji": "ğŸ“",
      "flagCode": "SA",
      "locationId": "SAU"
    },
    {
      "id": "1769030917045",
      "lat": 34.467756311493424,
      "lon": -119.14363757040988,
      "title": "(Last Day) 24/7 irl stream in America ğŸ‡ºğŸ‡¸ Day 35 of 35 (Los Angeles, CA)",
      "videoLink": "https://www.youtube.com/watch?v=9LNgIC0_wGU",
      "date": "2025-10-02",
      "emoji": "ğŸ“",
      "flagCode": "US",
      "locationId": "US_California"
    },
    {
      "id": "1769031018142",
      "lat": 34.61175212561396,
      "lon": -118.65385701636352,
      "title": "24/7 irl stream in America ğŸ‡ºğŸ‡¸ Day 34 of 35 (Los Angeles, CA)",
      "videoLink": "https://www.youtube.com/watch?v=XwWErRccYqg",
      "date": "2025-10-01",
      "emoji": "ğŸ“",
      "flagCode": "US",
      "locationId": "US_California"
    },
    {
      "id": "1769031067679",
      "lat": 34.92872212508768,
      "lon": -119.13713399240535,
      "title": "24/7 irl stream in America ğŸ‡ºğŸ‡¸ Day 33 of 35 (Los Angeles, CA)",
      "videoLink": "https://www.youtube.com/watch?v=cgPvCG1wk0M",
      "date": "2025-09-30",
      "emoji": "ğŸ“",
      "flagCode": "US",
      "locationId": "US_California"
    },
    {
      "id": "1769031150531",
      "lat": 33.373899186820445,
      "lon": -110.67601207085578,
      "title": "24/7 irl stream in America ğŸ‡ºğŸ‡¸ Day 32 of 35 (Phoenix, AZ) pt. 2",
      "videoLink": "https://www.youtube.com/watch?v=Bgdx7_7HbR0",
      "date": "2025-09-29",
      "emoji": "ğŸ“",
      "flagCode": "US",
      "locationId": "US_Arizona"
    },
    {
      "id": "1769031213540",
      "lat": 33.618299426259476,
      "lon": -111.13077253470198,
      "title": "24/7 irl stream in America ğŸ‡ºğŸ‡¸ Day 32 of 35 (Phoenix, AZ)",
      "videoLink": "https://www.youtube.com/watch?v=0FrfDW5SjJc",
      "date": "2025-09-29",
      "emoji": "ğŸ“",
      "flagCode": "US",
      "locationId": "US_Arizona"
    },
    {
      "id": "1769031273488",
      "lat": 35.14464461618295,
      "lon": -106.71475764246908,
      "title": "24/7 irl stream in America ğŸ‡ºğŸ‡¸ Day 31 of 35 (Albuquerque, NM) pt. 2",
      "videoLink": "https://www.youtube.com/watch?v=u-YhMqGfAXg",
      "date": "2025-09-28",
      "emoji": "ğŸ“",
      "flagCode": "US",
      "locationId": "US_NewMexico"
    },
    {
      "id": "1769031382600",
      "lat": 35.40826283489989,
      "lon": -107.13832446576006,
      "title": "24/7 irl stream in America ğŸ‡ºğŸ‡¸ Day 31 of 35 (Albuquerque, NM)",
      "videoLink": "https://www.youtube.com/watch?v=dNTGb3sPPEs",
      "date": "2025-09-28",
      "emoji": "ğŸ“",
      "flagCode": "US",
      "locationId": "US_NewMexico"
    },
    {
      "id": "1769031438787",
      "lat": 36.62645766377171,
      "lon": -115.0657930299851,
      "title": "24/7 irl stream in America ğŸ‡ºğŸ‡¸ Day 30 of 35 (Las Vegas, NV) pt. 2",
      "videoLink": "https://www.youtube.com/watch?v=Pp3RGD_4mq4",
      "date": "2025-09-27",
      "emoji": "ğŸ“",
      "flagCode": "US",
      "locationId": "US_Nevada"
    },
    {
      "id": "1769031482935",
      "lat": 36.68428247798111,
      "lon": -115.57284118989725,
      "title": "24/7 irl stream in America ğŸ‡ºğŸ‡¸ Day 30 of 35 (Las Vegas, NV)",
      "videoLink": "https://www.youtube.com/watch?v=YOQdHmHBHig",
      "date": "2025-09-27",
      "emoji": "ğŸ“",
      "flagCode": "US",
      "locationId": "US_Nevada"
    },
    {
      "id": "1769031567497",
      "lat": 37.58756585225598,
      "lon": -121.91549824714306,
      "title": "24/7 irl stream in America ğŸ‡ºğŸ‡¸ Day 29 of 35 (Oakland, CA)",
      "videoLink": "https://www.youtube.com/watch?v=gVkTeXBuweY",
      "date": "2025-09-26",
      "emoji": "ğŸ“",
      "flagCode": "US",
      "locationId": "US_California"
    },
    {
      "id": "1769031649707",
      "lat": 37.68621831941069,
      "lon": -122.43796016365593,
      "title": "24/7 irl stream in America ğŸ‡ºğŸ‡¸ Day 29 of 35 (San Francisco, CA)",
      "videoLink": "https://www.youtube.com/watch?v=6H-mSu4J6W8",
      "date": "2025-09-26",
      "emoji": "ğŸ“",
      "flagCode": "US",
      "locationId": "US_California"
    },
    {
      "id": "1769031727171",
      "lat": 45.05666589731416,
      "lon": -122.470713639324,
      "title": "24/7 irl stream in America ğŸ‡ºğŸ‡¸ Day 28 of 35 (Portland, OR) pt 2",
      "videoLink": "https://www.youtube.com/watch?v=BLzEp1ODVHA",
      "date": "2025-09-25",
      "emoji": "ğŸ“",
      "flagCode": "US",
      "locationId": "US_Oregon"
    },
    {
      "id": "1769031763555",
      "lat": 45.27146266808308,
      "lon": -123.13907332085904,
      "title": "24/7 irl stream in America ğŸ‡ºğŸ‡¸ Day 28 of 35 (Portland, OR)",
      "videoLink": "https://www.youtube.com/watch?v=wRAsSp6vgvA",
      "date": "2025-09-25",
      "emoji": "ğŸ“",
      "flagCode": "US",
      "locationId": "US_Oregon"
    },
    {
      "id": "1769031815322",
      "lat": 47.44189149076788,
      "lon": -121.48300251197792,
      "title": "24/7 irl stream in America ğŸ‡ºğŸ‡¸ Day 27 of 35 (Seattle, WA) pt 2",
      "videoLink": "https://www.youtube.com/watch?v=_cyq-zb16Mw",
      "date": "2025-09-24",
      "emoji": "ğŸ“",
      "flagCode": "US",
      "locationId": "US_Washington"
    },
    {
      "id": "1769031869205",
      "lat": 47.636716542601384,
      "lon": -122.11492538860651,
      "title": "24/7 irl stream in America ğŸ‡ºğŸ‡¸ Day 27 of 35 (Seattle, WA)",
      "videoLink": "https://www.youtube.com/watch?v=Cs56RKJPMrA",
      "date": "2025-09-24",
      "emoji": "ğŸ“",
      "flagCode": "US",
      "locationId": "US_Washington"
    },
    {
      "id": "1769031928233",
      "lat": 43.74567209050318,
      "lon": -115.55702910753217,
      "title": "24/7 irl stream in America ğŸ‡ºğŸ‡¸ Day 26 of 35 (Boise, ID) pt 2",
      "videoLink": "https://www.youtube.com/watch?v=kYFSRunmOfA",
      "date": "2025-09-23",
      "emoji": "ğŸ“",
      "flagCode": "US",
      "locationId": "US_Idaho"
    },
    {
      "id": "1769031954050",
      "lat": 43.43529760550024,
      "lon": -115.90194031282391,
      "title": "24/7 irl stream in America ğŸ‡ºğŸ‡¸ Day 26 of 35 (Boise, ID)",
      "videoLink": "https://www.youtube.com/watch?v=WLbaVdTwqGE",
      "date": "2025-09-23",
      "emoji": "ğŸ“",
      "flagCode": "US",
      "locationId": "US_Idaho"
    },
    {
      "id": "1769032517112",
      "lat": 40.29615788471671,
      "lon": -111.23812424509585,
      "title": "24/7 irl stream in America ğŸ‡ºğŸ‡¸ Day 25 of 35 (Salt Lake City, UT) pt 2",
      "videoLink": "https://www.youtube.com/watch?v=HBE5DY9gzgU",
      "date": "2025-09-22",
      "emoji": "ğŸ“",
      "flagCode": "US",
      "locationId": "US_Utah"
    },
    {
      "id": "1769032555629",
      "lat": 39.87580549730745,
      "lon": -111.31357457848517,
      "title": "24/7 irl stream in America ğŸ‡ºğŸ‡¸ Day 25 of 35 (Salt Lake City, UT)",
      "videoLink": "https://www.youtube.com/watch?v=sfz8x3nk1Dg",
      "date": "2025-09-22",
      "emoji": "ğŸ“",
      "flagCode": "US",
      "locationId": "US_Utah"
    },
    {
      "id": "1769032803118",
      "lat": 43.79342237276136,
      "lon": -103.3630758892444,
      "title": "24/7 irl stream in America ğŸ‡ºğŸ‡¸ Day 23 (Keystone, SD) pt 2",
      "videoLink": "https://www.youtube.com/watch?v=KMkgFZYZALg",
      "date": "2025-09-20",
      "emoji": "ğŸ“",
      "flagCode": "US",
      "locationId": "US_SouthDakota"
    },
    {
      "id": "1769032833537",
      "lat": 43.31633368700127,
      "lon": -103.41874366426346,
      "title": "24/7 irl stream in America ğŸ‡ºğŸ‡¸ Day 23 (Keystone, SD)",
      "videoLink": "https://www.youtube.com/watch?v=P6fN-0yyTug",
      "date": "2025-09-20",
      "emoji": "ğŸ“",
      "flagCode": "US",
      "locationId": "US_SouthDakota"
    },
    {
      "id": "1769099612097",
      "lat": 43.23764548395181,
      "lon": -109.97573664113013,
      "title": "24/7 irl stream in America ğŸ‡ºğŸ‡¸ Day 24 (Jackson Hole, WY) pt 2",
      "videoLink": "https://www.youtube.com/watch?v=HM8GMEjhGpE",
      "date": "2025-09-21",
      "emoji": "ğŸ“",
      "flagCode": "US",
      "locationId": "US_Wyoming"
    },
    {
      "id": "1769099674628",
      "lat": 43.47080811796502,
      "lon": -110.31118409644812,
      "title": "24/7 irl stream in America ğŸ‡ºğŸ‡¸ Day 24 (Jackson Hole, WY)",
      "videoLink": "https://www.youtube.com/watch?v=wwjjYghTkOg",
      "date": "2026-01-21",
      "emoji": "ğŸ“",
      "flagCode": "US",
      "locationId": "US_Wyoming"
    },
    {
      "id": "1769099726538",
      "lat": 39.91589969895165,
      "lon": -104.36308901186912,
      "title": "24/7 irl stream in America ğŸ‡ºğŸ‡¸ Day 22 (Denver, CO) pt 2",
      "videoLink": "https://www.youtube.com/watch?v=_gujzj26Teo",
      "date": "2025-09-19",
      "emoji": "ğŸ“",
      "flagCode": "US",
      "locationId": "US_Colorado"
    },
    {
      "id": "1769099759583",
      "lat": 39.51855758097422,
      "lon": -104.58407510825367,
      "title": "24/7 irl stream in America ğŸ‡ºğŸ‡¸ Day 22 (Denver, CO)",
      "videoLink": "https://www.youtube.com/watch?v=AjynPQgSw3o",
      "date": "2025-09-19",
      "emoji": "ğŸ“",
      "flagCode": "US",
      "locationId": "US_Colorado"
    },
    {
      "id": "1769099842931",
      "lat": 39.05302134558536,
      "lon": -94.8901994458967,
      "title": "24/7 irl stream in America ğŸ‡ºğŸ‡¸ Day 21 (Oklahoma City, OK + Kansas City, KS) pt. 2",
      "videoLink": "https://www.youtube.com/watch?v=-9Clhwpe4TA",
      "date": "2025-09-18",
      "emoji": "ğŸ“",
      "flagCode": "US",
      "locationId": "US_Kansas"
    },
    {
      "id": "1769099884938",
      "lat": 35.59120210667992,
      "lon": -97.54725088061949,
      "title": "24/7 irl stream in America ğŸ‡ºğŸ‡¸ Day 21 (Oklahoma City, OK + Kansas City, KS)",
      "videoLink": "https://www.youtube.com/watch?v=qtIPH7bQmf8",
      "date": "2025-09-18",
      "emoji": "ğŸ“",
      "flagCode": "US",
      "locationId": "US_Oklahoma"
    },
    {
      "id": "1769099949147",
      "lat": 30.165333557242036,
      "lon": -98.12850939144165,
      "title": "24/7 irl stream in America ğŸ‡ºğŸ‡¸ Day 20 of 35 (Austin, TX) pt. 2",
      "videoLink": "https://www.youtube.com/watch?v=uPQoJ4-oo30",
      "date": "2025-09-17",
      "emoji": "ğŸ“",
      "flagCode": "US",
      "locationId": "US_Texas"
    },
    {
      "id": "1769099977213",
      "lat": 30.622326986535867,
      "lon": -98.26037308382799,
      "title": "24/7 irl stream in America ğŸ‡ºğŸ‡¸ Day 20 of 35 (Austin, TX)",
      "videoLink": "https://www.youtube.com/watch?v=eOBBwAXKY1I",
      "date": "2025-09-17",
      "emoji": "ğŸ“",
      "flagCode": "US",
      "locationId": "US_Texas"
    },
    {
      "id": "1769100043925",
      "lat": 32.54758049104157,
      "lon": -96.28863674510987,
      "title": "24/7 irl stream in America ğŸ‡ºğŸ‡¸ Day 19 of 35 (Dallas, TX) pt. 2",
      "videoLink": "https://www.youtube.com/watch?v=yT4Ubl8KRCI",
      "date": "2025-09-16",
      "emoji": "ğŸ“",
      "flagCode": "US",
      "locationId": "US_Texas"
    },
    {
      "id": "1769100070836",
      "lat": 32.81183289684231,
      "lon": -96.70645902346689,
      "title": "24/7 irl stream in America ğŸ‡ºğŸ‡¸ Day 19 of 35 (Dallas, TX)",
      "videoLink": "https://www.youtube.com/watch?v=kZ29NZCCT_U",
      "date": "2025-09-16",
      "emoji": "ğŸ“",
      "flagCode": "US",
      "locationId": "US_Texas"
    },
    {
      "id": "1769100124371",
      "lat": 30.075675154839182,
      "lon": -95.74444915164979,
      "title": "24/7 irl stream in America ğŸ‡ºğŸ‡¸ Day 18 of 35 (Houston, TX) pt. 2",
      "videoLink": "https://www.youtube.com/watch?v=1QBRGABXKd4",
      "date": "2025-09-15",
      "emoji": "ğŸ“",
      "flagCode": "US",
      "locationId": "US_Texas"
    },
    {
      "id": "1769100151679",
      "lat": 30.135456468062316,
      "lon": -95.18298555721314,
      "title": "24/7 irl stream in America ğŸ‡ºğŸ‡¸ Day 18 of 35 (Houston, TX)",
      "videoLink": "https://www.youtube.com/watch?v=mm5pQp-1QRk",
      "date": "2025-09-15",
      "emoji": "ğŸ“",
      "flagCode": "US",
      "locationId": "US_Texas"
    },
    {
      "id": "1769100221672",
      "lat": 30.582660272561924,
      "lon": -91.05406853069337,
      "title": "24/7 irl stream in America ğŸ‡ºğŸ‡¸ Day 17 of 35 (Baton Rouge, LA) pt 2",
      "videoLink": "https://www.youtube.com/watch?v=lD9cilx73TA",
      "date": "2025-09-14",
      "emoji": "ğŸ“",
      "flagCode": "US",
      "locationId": "US_Louisiana"
    },
    {
      "id": "1769100262673",
      "lat": 30.23252399553909,
      "lon": -91.43413668979676,
      "title": "irl stream in America ğŸ‡ºğŸ‡¸ Day 17 of 35 (Baton Rouge, LA)",
      "videoLink": "https://www.youtube.com/watch?v=qTQX3qLCuKc",
      "date": "2025-09-14",
      "emoji": "ğŸ“",
      "flagCode": "US",
      "locationId": "US_Louisiana"
    },
    {
      "id": "1769100273897",
      "lat": 30.775811955631415,
      "lon": -91.53779140819582,
      "title": "irl stream in America ğŸ‡ºğŸ‡¸ Day 17 of 35 (Baton Rouge, LA)",
      "videoLink": "https://www.youtube.com/watch?v=6GwLs8tEwLY",
      "date": "2025-09-14",
      "emoji": "ğŸ“",
      "flagCode": "US",
      "locationId": "US_Louisiana"
    },
    {
      "id": "1769100333793",
      "lat": 29.753732159801327,
      "lon": -89.90522819866213,
      "title": "irl stream in America ğŸ‡ºğŸ‡¸ Day 16 of 35 (New Orleans, LA) pt 2",
      "videoLink": "https://www.youtube.com/watch?v=npsfbHvPP-U",
      "date": "2025-09-13",
      "emoji": "ğŸ“",
      "flagCode": "US",
      "locationId": "US_Louisiana"
    },
    {
      "id": "1769100458484",
      "lat": 30.1775401075415,
      "lon": -89.86045807155881,
      "title": "irl stream in America ğŸ‡ºğŸ‡¸ Day 16 of 35 (New Orleans, LA)",
      "videoLink": "https://www.youtube.com/watch?v=BT0c0hcC5cA",
      "date": "2025-09-13",
      "emoji": "ğŸ“",
      "flagCode": "US",
      "locationId": "US_Louisiana"
    },
    {
      "id": "1769100503381",
      "lat": 35.102512665083154,
      "lon": -90.03577938993911,
      "title": "irl stream in America ğŸ‡ºğŸ‡¸ Day 15 of 35 (Memphis, TN) pt 2",
      "videoLink": "https://www.youtube.com/watch?v=Kc17BE4HRgA",
      "date": "2025-09-12",
      "emoji": "ğŸ“",
      "flagCode": "US",
      "locationId": "US_Tennessee"
    },
    {
      "id": "1769100532274",
      "lat": 35.13005841761063,
      "lon": -89.65472833026917,
      "title": "irl stream in America ğŸ‡ºğŸ‡¸ Day 15 of 35 (Memphis, TN)",
      "videoLink": "https://www.youtube.com/watch?v=LVIzNyXkKq4",
      "date": "2025-09-12",
      "emoji": "ğŸ“",
      "flagCode": "US",
      "locationId": "US_Tennessee"
    },
    {
      "id": "1769100592207",
      "lat": 36.08513895765039,
      "lon": -86.44142948497803,
      "title": "irl stream in America ğŸ‡ºğŸ‡¸ Day 14 of 35 (Nashville, TN) pt 2",
      "videoLink": "https://www.youtube.com/watch?v=l5S7D0yiJZE",
      "date": "2025-09-11",
      "emoji": "ğŸ“",
      "flagCode": "US",
      "locationId": "US_Tennessee"
    },
    {
      "id": "1769100614283",
      "lat": 36.292947371623626,
      "lon": -86.94728950323324,
      "title": "irl stream in America ğŸ‡ºğŸ‡¸ Day 14 of 35 (Nashville, TN) pt 2",
      "videoLink": "https://www.youtube.com/watch?v=EZtr06oBGqA",
      "date": "2025-09-11",
      "emoji": "ğŸ“",
      "flagCode": "US",
      "locationId": "US_Tennessee"
    },
    {
      "id": "1769100676344",
      "lat": 39.22912830330031,
      "lon": -84.67426519939895,
      "title": "irl stream in America ğŸ‡ºğŸ‡¸ Day 13 of 35 (Cincinnati, OH) pt 2",
      "videoLink": "https://www.youtube.com/watch?v=bbjzry3Wv3Q",
      "date": "2025-09-10",
      "emoji": "ğŸ“",
      "flagCode": "US",
      "locationId": "US_Ohio"
    },
    {
      "id": "1769100704265",
      "lat": 39.209871270855075,
      "lon": -84.1869381796268,
      "title": "irl stream in America ğŸ‡ºğŸ‡¸ Day 13 of 35 (Cincinnati, OH)",
      "videoLink": "https://www.youtube.com/watch?v=bJDpKptdKOA",
      "date": "2025-09-10",
      "emoji": "ğŸ“",
      "flagCode": "US",
      "locationId": "US_Ohio"
    },
    {
      "id": "1769100751453",
      "lat": 41.364203056013466,
      "lon": -88.04807922948869,
      "title": "irl stream in America ğŸ‡ºğŸ‡¸ Day 12 of 35 (Chicago, IL) pt 2",
      "videoLink": "https://www.youtube.com/watch?v=aaMVtu9F27E",
      "date": "2025-09-09",
      "emoji": "ğŸ“",
      "flagCode": "US",
      "locationId": "US_Illinois"
    },
    {
      "id": "1769100784378",
      "lat": 41.542053304893486,
      "lon": -87.60668562986586,
      "title": "irl stream in America ğŸ‡ºğŸ‡¸ Day 12 of 35 (Chicago, IL)",
      "videoLink": "https://www.youtube.com/watch?v=LSxfg1wOtVE",
      "date": "2025-09-09",
      "emoji": "ğŸ“",
      "flagCode": "US",
      "locationId": "US_Illinois"
    },
    {
      "id": "1769100864292",
      "lat": 42.482924453378104,
      "lon": -82.99367941032254,
      "title": "irl stream in America ğŸ‡ºğŸ‡¸ Day 11 of 35 (Detroit, MI) pt 2",
      "videoLink": "https://www.youtube.com/watch?v=8qXlRptNqvA",
      "date": "2025-09-08",
      "emoji": "ğŸ“",
      "flagCode": "US",
      "locationId": "US_Michigan"
    },
    {
      "id": "1769100881784",
      "lat": 42.227112726444055,
      "lon": -83.19357971061739,
      "title": "irl stream in America ğŸ‡ºğŸ‡¸ Day 11 of 35 (Detroit, MI)",
      "videoLink": "https://www.youtube.com/watch?v=cetcKaq5y4s",
      "date": "2025-09-08",
      "emoji": "ğŸ“",
      "flagCode": "US",
      "locationId": "US_Michigan"
    },
    {
      "id": "1769100973455",
      "lat": 40.14677721379406,
      "lon": -80.026795874513,
      "title": "irl stream in America ğŸ‡ºğŸ‡¸ Day 10 of 35 (Pittsburgh, PA) pt 2",
      "videoLink": "https://www.youtube.com/watch?v=STKV4U4qAjc",
      "date": "2025-09-07",
      "emoji": "ğŸ“",
      "flagCode": "US",
      "locationId": "US_Pennsylvania"
    },
    {
      "id": "1769100996203",
      "lat": 40.11420152753153,
      "lon": -79.55702420581848,
      "title": "irl stream in America ğŸ‡ºğŸ‡¸ Day 10 of 35 (Pittsburgh, PA)",
      "videoLink": "https://www.youtube.com/watch?v=dICpZ2p671o",
      "date": "2025-09-07",
      "emoji": "ğŸ“",
      "flagCode": "US",
      "locationId": "US_Pennsylvania"
    },
    {
      "id": "1769101129634",
      "lat": 42.304788534551264,
      "lon": -71.13694563757258,
      "title": "irl stream in America ğŸ‡ºğŸ‡¸ Day 9 of 35 (Boston, MA) pt 2",
      "videoLink": "https://www.youtube.com/watch?v=KfTokew0PO8",
      "date": "2025-09-06",
      "emoji": "ğŸ“",
      "flagCode": "US",
      "locationId": "US_Massachusetts"
    },
    {
      "id": "1769101164559",
      "lat": 42.047763565531845,
      "lon": -70.89321056713136,
      "title": "irl stream in America ğŸ‡ºğŸ‡¸ Day 9 of 35 (Boston, MA)",
      "videoLink": "https://www.youtube.com/watch?v=Szn31z9IjVU",
      "date": "2025-09-06",
      "emoji": "ğŸ“",
      "flagCode": "US",
      "locationId": "US_Massachusetts"
    },
    {
      "id": "1769101715927",
      "lat": 40.64816764917733,
      "lon": -73.94426318060238,
      "title": "irl stream in America ğŸ‡ºğŸ‡¸ Day 8 of 35 (New York City, NY) pt 4",
      "videoLink": "https://www.youtube.com/watch?v=hKVE3HqD-tA",
      "date": "2025-09-05",
      "emoji": "ğŸ“",
      "flagCode": "US",
      "locationId": "US_NewYork"
    },
    {
      "id": "1769101745168",
      "lat": 40.93492249413899,
      "lon": -73.64870010723146,
      "title": "irl stream in America ğŸ‡ºğŸ‡¸ with Lil Uzi Vert | Day 8 of 35 (New York City, NY) pt 3",
      "videoLink": "https://www.youtube.com/watch?v=oWzbqUNLq2k",
      "date": "2025-09-05",
      "emoji": "ğŸ“",
      "flagCode": "US",
      "locationId": "US_NewYork"
    },
    {
      "id": "1769101787725",
      "lat": 40.673385405892404,
      "lon": -73.2599952351001,
      "title": "irl stream in America ğŸ‡ºğŸ‡¸ Day 7 of 35 (New York City, NY) pt 2",
      "videoLink": "https://www.youtube.com/watch?v=9I9acSL2Mqs",
      "date": "2025-09-04",
      "emoji": "ğŸ“",
      "flagCode": "US",
      "locationId": "US_NewYork"
    },
    {
      "id": "1769101817545",
      "lat": 41.24091050266788,
      "lon": -73.8819235454944,
      "title": "irl stream in America ğŸ‡ºğŸ‡¸ Day 7 of 35 (New York City, NY)",
      "videoLink": "https://www.youtube.com/watch?v=JEg955xyMqk",
      "date": "2025-09-04",
      "emoji": "ğŸ“",
      "flagCode": "US",
      "locationId": "US_NewYork"
    },
    {
      "id": "1769101943719",
      "lat": 40.03701148212506,
      "lon": -75.08102841254012,
      "title": "irl stream in America ğŸ‡ºğŸ‡¸ Day 6 of 35 (Philadelphia, PA) pt 2",
      "videoLink": "https://www.youtube.com/watch?v=y_gcNgHf0M4",
      "date": "2025-09-03",
      "emoji": "ğŸ“",
      "flagCode": "US",
      "locationId": "US_Pennsylvania"
    },
    {
      "id": "1769101966955",
      "lat": 39.86934302241819,
      "lon": -75.53176275600465,
      "title": "irl stream in America ğŸ‡ºğŸ‡¸ Day 6 of 35 (Philadelphia, PA)",
      "videoLink": "https://www.youtube.com/watch?v=7Zyl1E98T0o",
      "date": "2025-09-03",
      "emoji": "ğŸ“",
      "flagCode": "US",
      "locationId": "US_Pennsylvania"
    },
    {
      "id": "1769102094187",
      "lat": 38.82533741862663,
      "lon": -77.05071716454054,
      "title": "irl stream in America ğŸ‡ºğŸ‡¸ Day 5 of 35 (Washington, DC) pt 2",
      "videoLink": "https://www.youtube.com/watch?v=XRyndOnbLsk",
      "date": "2025-09-02",
      "emoji": "ğŸ“",
      "flagCode": "US",
      "locationId": "US_DistrictofColumbia"
    },
    {
      "id": "1769102158541",
      "lat": 38.88984175428931,
      "lon": -77.02443354216894,
      "title": "irl stream in America ğŸ‡ºğŸ‡¸ Day 5 of 35 (Washington, DC)",
      "videoLink": "https://www.youtube.com/watch?v=8H5FyKfwjoY",
      "date": "2025-09-02",
      "emoji": "ğŸ“",
      "flagCode": "US",
      "locationId": "US_DistrictofColumbia"
    },
    {
      "id": "1769102297729",
      "lat": 35.829254190376616,
      "lon": -77.29599721052564,
      "title": "irl stream in America ğŸ‡ºğŸ‡¸ with MrBeast | Day 4 of 35 (Greenville, NC)",
      "videoLink": "https://www.youtube.com/watch?v=4LHi1qyHy8c",
      "date": "2025-09-01",
      "emoji": "ğŸ“",
      "flagCode": "US",
      "locationId": "US_NorthCarolina"
    },
    {
      "id": "1769102376158",
      "lat": 38.07668137713705,
      "lon": -77.3891379669467,
      "title": "irl stream in America ğŸ‡ºğŸ‡¸ Day 4 of 35 pt 2",
      "videoLink": "https://www.youtube.com/watch?v=jcEP-R0G3-4",
      "date": "2025-09-01",
      "emoji": "ğŸ“",
      "flagCode": "US",
      "locationId": "US_Virginia"
    },
    {
      "id": "1769102500085",
      "lat": 33.49633448054475,
      "lon": -84.42880026210817,
      "title": "irl stream in America ğŸ‡ºğŸ‡¸ Day 3 of 35 (Atlanta, GA) pt 3",
      "videoLink": "https://www.youtube.com/watch?v=e0cw5FXUNNA",
      "date": "2025-08-31",
      "emoji": "ğŸ“",
      "flagCode": "US",
      "locationId": "US_Georgia"
    },
    {
      "id": "1769102654438",
      "lat": 33.164348460095034,
      "lon": -84.33378311504396,
      "title": "irl stream in America ğŸ‡ºğŸ‡¸ Day 3 of 35 (Atlanta, GA) pt 2",
      "videoLink": "https://www.youtube.com/watch?v=vsdGAuy-G88",
      "date": "2025-08-30",
      "emoji": "ğŸ“",
      "flagCode": "US",
      "locationId": "US_Georgia"
    },
    {
      "id": "1769102697173",
      "lat": 33.243851323855786,
      "lon": -83.89325023998292,
      "title": "irl stream in America ğŸ‡ºğŸ‡¸ Day 3 of 35 (Atlanta, GA)",
      "videoLink": "https://www.youtube.com/watch?v=608eaOKzqpg",
      "date": "2025-08-30",
      "emoji": "ğŸ“",
      "flagCode": "US",
      "locationId": "US_Georgia"
    },
    {
      "id": "1769102889852",
      "lat": 30.15293988063623,
      "lon": -81.49112607331719,
      "title": "irl stream in America ğŸ‡ºğŸ‡¸ Day 2 of 35 (Jacksonville, FL)",
      "videoLink": "https://www.youtube.com/watch?v=TfpW6EVLf-c",
      "date": "2025-08-29",
      "emoji": "ğŸ“",
      "flagCode": "US",
      "locationId": "US_Florida"
    },
    {
      "id": "1769102945594",
      "lat": 28.414788034135864,
      "lon": -81.27121490617243,
      "title": "irl stream in America ğŸ‡ºğŸ‡¸ Day 2 of 35 (Orlando, FL)",
      "videoLink": "https://www.youtube.com/watch?v=myWdPFH_U5k",
      "date": "2025-08-29",
      "emoji": "ğŸ“",
      "flagCode": "US",
      "locationId": "US_Florida"
    },
    {
      "id": "1769102983677",
      "lat": 25.8469168131136,
      "lon": -80.30305705896014,
      "title": "irl stream in America ğŸ‡ºğŸ‡¸ Day 1 of 35 (Miami, FL)",
      "videoLink": "https://www.youtube.com/watch?v=ofV7SLRf7dQ",
      "date": "2025-08-28",
      "emoji": "ğŸ“",
      "flagCode": "US",
      "locationId": "US_Florida"
    },
    {
      "id": "1769561136430",
      "lat": 6.266548636028985,
      "lon": 2.3394956837953487,
      "title": "irl stream in Benin ğŸ‡§ğŸ‡¯",
      "videoLink": "https://www.youtube.com/watch?v=oK-6fuwBeH8",
      "date": "2026-01-23",
      "emoji": "ğŸ“",
      "flagCode": "BJ",
      "locationId": "BEN"
    },
    {
      "id": "1769561280850",
      "lat": 6.313219026876508,
      "lon": -10.746903469568139,
      "title": "irl stream in Liberia ğŸ‡±ğŸ‡·",
      "videoLink": "https://www.youtube.com/watch?v=hk5byE784SA",
      "date": "2026-01-24",
      "emoji": "ğŸ“",
      "flagCode": "LR",
      "locationId": "LBR"
    },
    {
      "id": "1769561374237",
      "lat": 7.03794760040367,
      "lon": -5.135986810789717,
      "title": "irl stream in CÃ´te dâ€™Ivoire ğŸ‡¨ğŸ‡® (Ivory Coast)",
      "videoLink": "https://www.youtube.com/watch?v=M3W4swHFEG4",
      "date": "2026-01-25",
      "emoji": "ğŸ“",
      "flagCode": "CI",
      "locationId": "CIV"
    },
    {
      "id": "1769561580089",
      "lat": 7.012768223449297,
      "lon": 0.470675986477886,
      "title": "irl stream in Ghana ğŸ‡¬ğŸ‡­",
      "videoLink": "https://www.youtube.com/watch?v=Ovj7okGTNQ0",
      "date": "2026-01-26",
      "emoji": "ğŸ“",
      "flagCode": "GH",
      "locationId": "GHA"
    },
    {
      "id": "1769561686751",
      "lat": -18.377055122600204,
      "lon": 14.32029455473264,
      "title": "irl Tribe stream in Namibia ğŸ‡³ğŸ‡¦ (Himba Tribe)",
      "videoLink": "https://www.youtube.com/watch?v=UstnnRtwfFg",
      "date": "2026-01-27",
      "emoji": "ğŸ“",
      "flagCode": "NA",
      "locationId": "NAM"
    },
    {
      "id": "1769561829621",
      "lat": -22.551796797585563,
      "lon": 17.143202219277754,
      "title": "irl stream in Namibia ğŸ‡³ğŸ‡¦ (Finale)",
      "videoLink": "https://www.youtube.com/watch?v=kGGopw8tmug",
      "date": "2026-01-27",
      "emoji": "ğŸ“",
      "flagCode": "NA",
      "locationId": "NAM"
    }
  ],
  "exportedAt": "2026-01-28T00:58:01.371Z"
}