{
  "pins": [
    {
      "id": "1768946582134",
      "lat": 29.568850121079137,
      "lon": 30.599407244283867,
      "title": "irl stream inside the Great Pyramids ğŸ‡ªğŸ‡¬ğŸªğŸ‘‘ (Egypt)",
      "videoLink": "https://www.youtube.com/watch?v=hRQq_MG7RIk",
      "date": "2026-01-15",
      "emoji": "ğŸ“",
      "flagCode": "EG",
      "locationId": "EGY"
    },
    {
      "id": "1768947490439",
      "lat": 31.088494985507843,
      "lon": -8.12909331670653,
      "title": "irl stream in Marrakech, Morocco ğŸ‡²ğŸ‡¦",
      "videoLink": "https://www.youtube.com/watch?v=8saTwDjDzSM",
      "date": "2026-01-19",
      "emoji": "ğŸ“",
      "flagCode": "MA",
      "locationId": "MAR"
    },
    {
      "id": "1768947768724",
      "lat": -0.9884863832304102,
      "lon": 34.97025143062149,
      "title": "irl Safari and Tribe stream in Maasai MarağŸ¦ğŸ˜ (Kenya)",
      "videoLink": "https://www.youtube.com/watch?v=yyqx8-5S2BU",
      "date": "2026-01-12",
      "emoji": "ğŸ“",
      "flagCode": "KE",
      "locationId": "KEN"
    },
    {
      "id": "1768947945708",
      "lat": -24.6470979423851,
      "lon": 25.843940973480045,
      "title": "irl stream in Botswana ğŸ‡§ğŸ‡¼ pt. 2 (Gaborone)",
      "videoLink": "https://www.youtube.com/watch?v=e3GDwgTJUl4",
      "date": "2026-01-06",
      "emoji": "ğŸ“",
      "flagCode": "BW",
      "locationId": "BWA"
    },
    {
      "id": "1768948036261",
      "lat": -19.271263205085198,
      "lon": 22.619520411639115,
      "title": "irl Safari stream in Okavango DeltağŸ˜ğŸ¦’ğŸ¦(Botswana)",
      "videoLink": "https://www.youtube.com/watch?v=hcmi-ejMj7s",
      "date": "2026-01-05",
      "emoji": "ğŸ“",
      "flagCode": "BW",
      "locationId": "BWA"
    },
    {
      "id": "1768948375328",
      "lat": -33.89660773929911,
      "lon": 18.3566005202087,
      "title": "irl Shark Diving stream in South Africa ğŸ¦ˆ",
      "videoLink": "https://www.youtube.com/watch?v=2O7tu4iVFqU",
      "date": "2026-01-01",
      "emoji": "ğŸ“",
      "flagCode": "ZA",
      "locationId": "ZAF"
    },
    {
      "id": "1768948433889",
      "lat": -26.003870385955537,
      "lon": 28.262180132093505,
      "title": "irl stream in South Africa ğŸ‡¿ğŸ‡¦ pt 3 (Johannesburg)",
      "videoLink": "https://www.youtube.com/watch?v=FYxRnfHBzSQ",
      "date": "2026-01-02",
      "emoji": "ğŸ“",
      "flagCode": "ZA",
      "locationId": "ZAF"
    },
    {
      "id": "1768950694268",
      "lat": -33.42433990418027,
      "lon": 18.53871345434075,
      "title": "irl stream in South Africa ğŸ‡¿ğŸ‡¦ (New Years)",
      "videoLink": "https://www.youtube.com/watch?v=2yGZz3Z_p4E",
      "date": "2025-12-31",
      "emoji": "ğŸ“",
      "flagCode": "ZA",
      "locationId": "ZAF"
    },
    {
      "id": "1768950802906",
      "lat": -24.167470130751425,
      "lon": 25.69379873302418,
      "title": "irl stream in Botswana ğŸ‡§ğŸ‡¼ (Gaborone)",
      "videoLink": "https://www.youtube.com/watch?v=EaejFrxXMbY",
      "date": "2026-01-06",
      "emoji": "ğŸ“",
      "flagCode": "BW",
      "locationId": "BWA"
    },
    {
      "id": "1768951649363",
      "lat": -26.35595496534372,
      "lon": 31.126940972390486,
      "title": "irl stream in Eswatini ğŸ‡¸ğŸ‡¿",
      "videoLink": "https://www.youtube.com/watch?v=enuGFi4nABM",
      "date": "2026-01-04",
      "emoji": "ğŸ“",
      "flagCode": "SZ",
      "locationId": "SWZ"
    },
    {
      "id": "1768951801898",
      "lat": -17.70858757619817,
      "lon": 31.283978650939957,
      "title": "irl stream in Zimbabwe ğŸ‡¿ğŸ‡¼",
      "videoLink": "https://www.youtube.com/watch?v=wzKNxjpcZ54",
      "date": "2026-01-07",
      "emoji": "ğŸ“",
      "flagCode": "ZW",
      "locationId": "ZWE"
    },
    {
      "id": "1768951977465",
      "lat": -25.36828148951674,
      "lon": 32.54262823027108,
      "title": "irl stream in Mozambique ğŸ‡²ğŸ‡¿",
      "videoLink": "https://www.youtube.com/watch?v=CkqumomD-Lw",
      "date": "2026-01-03",
      "emoji": "ğŸ“",
      "flagCode": "MZ",
      "locationId": "MOZ"
    },
    {
      "id": "1768952099724",
      "lat": -15.294923754052409,
      "lon": 28.0924659213928,
      "title": "irl stream in Zambia ğŸ‡¿ğŸ‡²",
      "videoLink": "https://www.youtube.com/watch?v=Ux3-hEvl2m4",
      "date": "2026-01-09",
      "emoji": "ğŸ“",
      "flagCode": "ZM",
      "locationId": "ZMB"
    },
    {
      "id": "1768952208312",
      "lat": -9.08112443896382,
      "lon": 13.352044965991183,
      "title": "irl stream in Angola ğŸ‡¦ğŸ‡´",
      "videoLink": "https://www.youtube.com/watch?v=Ez2inQTE_fk",
      "date": "2025-12-29",
      "emoji": "ğŸ“",
      "flagCode": "AO",
      "locationId": "AGO"
    },
    {
      "id": "1768952411116",
      "lat": -1.9477804798468308,
      "lon": 30.13834920604009,
      "title": "irl stream in Rwanda ğŸ‡·ğŸ‡¼",
      "videoLink": "https://www.youtube.com/watch?v=x2rUxwB5Hfc",
      "date": "2026-01-10",
      "emoji": "ğŸ“",
      "flagCode": "RW",
      "locationId": "RWA"
    },
    {
      "id": "1768952539575",
      "lat": -0.948179181398654,
      "lon": 37.085030218966864,
      "title": "irl stream in Kenya ğŸ‡°ğŸ‡ª",
      "videoLink": "https://www.youtube.com/watch?v=tBvT8W8LnZ0",
      "date": "2026-01-11",
      "emoji": "ğŸ“",
      "flagCode": "KE",
      "locationId": "KEN"
    },
    {
      "id": "1768952679724",
      "lat": 9.232607411642338,
      "lon": 38.17731655759795,
      "title": "irl stream in Ethiopia ğŸ‡ªğŸ‡¹",
      "videoLink": "https://www.youtube.com/watch?v=7TdYPqwzdko",
      "date": "2026-01-13",
      "emoji": "ğŸ“",
      "flagCode": "ET",
      "locationId": "ETH"
    },
    {
      "id": "1768952881432",
      "lat": 30.197429024595653,
      "lon": 31.14904401038953,
      "title": "irl stream in Egypt ğŸ‡ªğŸ‡¬",
      "videoLink": "https://www.youtube.com/watch?v=x6-vh91YnuY",
      "date": "2026-01-15",
      "emoji": "ğŸ“",
      "flagCode": "EG",
      "locationId": "EGY"
    },
    {
      "id": "1768953060829",
      "lat": 35.11782198416055,
      "lon": 3.4062623151506557,
      "title": "irl stream in Algeria ğŸ‡©ğŸ‡¿",
      "videoLink": "https://www.youtube.com/watch?v=DomN9Ru37s0",
      "date": "2026-01-17",
      "emoji": "ğŸ“",
      "flagCode": "DZ",
      "locationId": "DZA"
    },
    {
      "id": "1768953138123",
      "lat": 33.677457544636596,
      "lon": -7.074360084530554,
      "title": "irl stream in Morocco ğŸ‡²ğŸ‡¦ SENEGAL VS MOROCCO AFCON FINAL âš½ï¸",
      "videoLink": "https://www.youtube.com/watch?v=GSDx12RcP9o",
      "date": "2026-01-18",
      "emoji": "ğŸ“",
      "flagCode": "MA",
      "locationId": "MAR"
    },
    {
      "id": "1768953230094",
      "lat": 14.644906530693145,
      "lon": -16.86459308917111,
      "title": "irl stream in Senegal ğŸ‡¸ğŸ‡³",
      "videoLink": "https://www.youtube.com/watch?v=SNKIio-1uxE",
      "date": "2026-01-20",
      "emoji": "ğŸ“",
      "flagCode": "SN",
      "locationId": "SEN"
    },
    {
      "id": "1768955641614",
      "lat": 33.92325528325714,
      "lon": -117.90750486663418,
      "title": "irl HALLOWEEN STREAM ğŸƒâ˜ ï¸ ft. Dad & Jamal",
      "videoLink": "https://www.youtube.com/watch?v=uPEXETjo5aw",
      "date": "2025-11-01",
      "emoji": "ğŸ“",
      "flagCode": "US",
      "locationId": "US_California"
    },
    {
      "id": "1769004446455",
      "lat": 6.968092531919462,
      "lon": 3.94494911658893,
      "title": "irl stream in Nigeria ğŸ‡³ğŸ‡¬  (50 million) + (21st birthday)",
      "videoLink": "https://www.youtube.com/watch?v=08Y8GmE3O9s",
      "date": "2026-01-21",
      "emoji": "ğŸ“",
      "flagCode": "NG",
      "locationId": "NGA"
    },
    {
      "id": "1769025288957",
      "lat": 60.04388414251452,
      "lon": 10.362793718310087,
      "title": "irl stream in Norway ğŸ‡³ğŸ‡´",
      "videoLink": "https://www.youtube.com/watch?v=_rgQQ89zND0",
      "date": "2024-07-03",
      "emoji": "ğŸ“",
      "flagCode": "NO",
      "locationId": "NOR"
    },
    {
      "id": "1769025818393",
      "lat": 59.31574576865413,
      "lon": 5.992323778417926,
      "title": "irl stream returning to Norway ğŸ’€ğŸ‡³ğŸ‡´",
      "videoLink": "https://www.youtube.com/watch?v=JMnV1OREFDo",
      "date": "2024-07-14",
      "emoji": "ğŸ“",
      "flagCode": "NO",
      "locationId": "NOR"
    },
    {
      "id": "1769030497856",
      "lat": 13.96749804225731,
      "lon": 100.31765983696937,
      "title": "45 million in Thailand........ ğŸ‡¹ğŸ‡­",
      "videoLink": "https://www.youtube.com/watch?v=VoL8U_UF0do",
      "date": "2025-10-21",
      "emoji": "ğŸ“",
      "flagCode": "TH",
      "locationId": "THA"
    },
    {
      "id": "1769030824274",
      "lat": 24.3202511229719,
      "lon": 47.58428195305112,
      "title": " RETURN STREAM + WATCHING RONALDO PLAY IN SAUDI ğŸğŸ‡¸ğŸ‡¦",
      "videoLink": "https://www.youtube.com/watch?v=_-XB-bJUG4A",
      "date": "2025-10-18",
      "emoji": "ğŸ“",
      "flagCode": "SA",
      "locationId": "SAU"
    },
    {
      "id": "1769030917045",
      "lat": 34.467756311493424,
      "lon": -119.14363757040988,
      "title": "(Last Day) 24/7 irl stream in America ğŸ‡ºğŸ‡¸ Day 35 of 35 (Los Angeles, CA)",
      "videoLink": "https://www.youtube.com/watch?v=9LNgIC0_wGU",
      "date": "2025-10-02",
      "emoji": "ğŸ“",
      "flagCode": "US",
      "locationId": "US_California"
    },
    {
      "id": "1769031018142",
      "lat": 34.61175212561396,
      "lon": -118.65385701636352,
      "title": "24/7 irl stream in America ğŸ‡ºğŸ‡¸ Day 34 of 35 (Los Angeles, CA)",
      "videoLink": "https://www.youtube.com/watch?v=XwWErRccYqg",
      "date": "2025-10-01",
      "emoji": "ğŸ“",
      "flagCode": "US",
      "locationId": "US_California"
    },
    {
      "id": "1769031067679",
      "lat": 34.92872212508768,
      "lon": -119.13713399240535,
      "title": "24/7 irl stream in America ğŸ‡ºğŸ‡¸ Day 33 of 35 (Los Angeles, CA)",
      "videoLink": "https://www.youtube.com/watch?v=cgPvCG1wk0M",
      "date": "2025-09-30",
      "emoji": "ğŸ“",
      "flagCode": "US",
      "locationId": "US_California"
    },
    {
      "id": "1769031150531",
      "lat": 33.30964470793741,
      "lon": -111.43302806567527,
      "title": "24/7 irl stream in America ğŸ‡ºğŸ‡¸ Day 32 of 35 (Phoenix, AZ) pt. 2",
      "videoLink": "https://www.youtube.com/watch?v=Bgdx7_7HbR0",
      "date": "2025-09-29",
      "emoji": "ğŸ“",
      "flagCode": "US",
      "locationId": "US_Arizona"
    },
    {
      "id": "1769031213540",
      "lat": 33.618299426259476,
      "lon": -111.13077253470198,
      "title": "24/7 irl stream in America ğŸ‡ºğŸ‡¸ Day 32 of 35 (Phoenix, AZ)",
      "videoLink": "https://www.youtube.com/watch?v=0FrfDW5SjJc",
      "date": "2025-09-29",
      "emoji": "ğŸ“",
      "flagCode": "US",
      "locationId": "US_Arizona"
    },
    {
      "id": "1769031273488",
      "lat": 35.15421082937603,
      "lon": -106.82801118107446,
      "title": "24/7 irl stream in America ğŸ‡ºğŸ‡¸ Day 31 of 35 (Albuquerque, NM) pt. 2",
      "videoLink": "https://www.youtube.com/watch?v=u-YhMqGfAXg",
      "date": "2025-09-28",
      "emoji": "ğŸ“",
      "flagCode": "US",
      "locationId": "US_NewMexico"
    },
    {
      "id": "1769031382600",
      "lat": 35.40826283489989,
      "lon": -107.13832446576006,
      "title": "24/7 irl stream in America ğŸ‡ºğŸ‡¸ Day 31 of 35 (Albuquerque, NM)",
      "videoLink": "https://www.youtube.com/watch?v=dNTGb3sPPEs",
      "date": "2025-09-28",
      "emoji": "ğŸ“",
      "flagCode": "US",
      "locationId": "US_NewMexico"
    },
    {
      "id": "1769031438787",
      "lat": 36.66356745576971,
      "lon": -115.31575648253988,
      "title": "24/7 irl stream in America ğŸ‡ºğŸ‡¸ Day 30 of 35 (Las Vegas, NV) pt. 2",
      "videoLink": "https://www.youtube.com/watch?v=Pp3RGD_4mq4",
      "date": "2025-09-27",
      "emoji": "ğŸ“",
      "flagCode": "US",
      "locationId": "US_Nevada"
    },
    {
      "id": "1769031482935",
      "lat": 36.79612908667969,
      "lon": -115.90304008658568,
      "title": "24/7 irl stream in America ğŸ‡ºğŸ‡¸ Day 30 of 35 (Las Vegas, NV)",
      "videoLink": "https://www.youtube.com/watch?v=YOQdHmHBHig",
      "date": "2025-09-27",
      "emoji": "ğŸ“",
      "flagCode": "US",
      "locationId": "US_Nevada"
    },
    {
      "id": "1769031567497",
      "lat": 37.58756585225598,
      "lon": -121.91549824714306,
      "title": "24/7 irl stream in America ğŸ‡ºğŸ‡¸ Day 29 of 35 (Oakland, CA)",
      "videoLink": "https://www.youtube.com/watch?v=gVkTeXBuweY",
      "date": "2025-09-26",
      "emoji": "ğŸ“",
      "flagCode": "US",
      "locationId": "US_California"
    },
    {
      "id": "1769031649707",
      "lat": 37.68621831941069,
      "lon": -122.43796016365593,
      "title": "24/7 irl stream in America ğŸ‡ºğŸ‡¸ Day 29 of 35 (San Francisco, CA)",
      "videoLink": "https://www.youtube.com/watch?v=6H-mSu4J6W8",
      "date": "2025-09-26",
      "emoji": "ğŸ“",
      "flagCode": "US",
      "locationId": "US_California"
    },
    {
      "id": "1769031727171",
      "lat": 45.290669672337714,
      "lon": -123.01987543686306,
      "title": "24/7 irl stream in America ğŸ‡ºğŸ‡¸ Day 28 of 35 (Portland, OR) pt 2",
      "videoLink": "https://www.youtube.com/watch?v=BLzEp1ODVHA",
      "date": "2025-09-25",
      "emoji": "ğŸ“",
      "flagCode": "US",
      "locationId": "US_Oregon"
    },
    {
      "id": "1769031763555",
      "lat": 45.20475392287949,
      "lon": -122.53569967415228,
      "title": "24/7 irl stream in America ğŸ‡ºğŸ‡¸ Day 28 of 35 (Portland, OR)",
      "videoLink": "https://www.youtube.com/watch?v=wRAsSp6vgvA",
      "date": "2025-09-25",
      "emoji": "ğŸ“",
      "flagCode": "US",
      "locationId": "US_Oregon"
    },
    {
      "id": "1769031815322",
      "lat": 47.32731379362254,
      "lon": -122.11003281716587,
      "title": "24/7 irl stream in America ğŸ‡ºğŸ‡¸ Day 27 of 35 (Seattle, WA) pt 2",
      "videoLink": "https://www.youtube.com/watch?v=_cyq-zb16Mw",
      "date": "2025-09-24",
      "emoji": "ğŸ“",
      "flagCode": "US",
      "locationId": "US_Washington"
    },
    {
      "id": "1769031869205",
      "lat": 47.636716542601384,
      "lon": -122.11492538860651,
      "title": "24/7 irl stream in America ğŸ‡ºğŸ‡¸ Day 27 of 35 (Seattle, WA)",
      "videoLink": "https://www.youtube.com/watch?v=Cs56RKJPMrA",
      "date": "2025-09-24",
      "emoji": "ğŸ“",
      "flagCode": "US",
      "locationId": "US_Washington"
    },
    {
      "id": "1769031928233",
      "lat": 43.813922249280076,
      "lon": -115.80472076129374,
      "title": "24/7 irl stream in America ğŸ‡ºğŸ‡¸ Day 26 of 35 (Boise, ID) pt 2",
      "videoLink": "https://www.youtube.com/watch?v=kYFSRunmOfA",
      "date": "2025-09-23",
      "emoji": "ğŸ“",
      "flagCode": "US",
      "locationId": "US_Idaho"
    },
    {
      "id": "1769031954050",
      "lat": 43.523580014990635,
      "lon": -115.52771660726899,
      "title": "24/7 irl stream in America ğŸ‡ºğŸ‡¸ Day 26 of 35 (Boise, ID)",
      "videoLink": "https://www.youtube.com/watch?v=WLbaVdTwqGE",
      "date": "2025-09-23",
      "emoji": "ğŸ“",
      "flagCode": "US",
      "locationId": "US_Idaho"
    },
    {
      "id": "1769032517112",
      "lat": 40.61075840410175,
      "lon": -111.48731414316134,
      "title": "24/7 irl stream in America ğŸ‡ºğŸ‡¸ Day 25 of 35 (Salt Lake City, UT) pt 2",
      "videoLink": "https://www.youtube.com/watch?v=HBE5DY9gzgU",
      "date": "2025-09-22",
      "emoji": "ğŸ“",
      "flagCode": "US",
      "locationId": "US_Utah"
    },
    {
      "id": "1769032555629",
      "lat": 40.19290985737026,
      "lon": -111.12708068462051,
      "title": "24/7 irl stream in America ğŸ‡ºğŸ‡¸ Day 25 of 35 (Salt Lake City, UT)",
      "videoLink": "https://www.youtube.com/watch?v=sfz8x3nk1Dg",
      "date": "2025-09-22",
      "emoji": "ğŸ“",
      "flagCode": "US",
      "locationId": "US_Utah"
    },
    {
      "id": "1769032643573",
      "lat": 39.261053690308366,
      "lon": -108.20840461322956,
      "title": "24/7 irl stream in America ğŸ‡ºğŸ‡¸ Day 24 (Jackson Hole, WY) pt 2",
      "videoLink": "https://www.youtube.com/watch?v=HM8GMEjhGpE",
      "date": "2025-09-21",
      "emoji": "ğŸ“",
      "flagCode": "US",
      "locationId": "US_Colorado"
    },
    {
      "id": "1769032716779",
      "lat": 39.0366167730377,
      "lon": -108.01508245507696,
      "title": "24/7 irl stream in America ğŸ‡ºğŸ‡¸ Day 24 (Jackson Hole, WY)",
      "videoLink": "https://www.youtube.com/watch?v=wwjjYghTkOg",
      "date": "2025-09-21",
      "emoji": "ğŸ“",
      "flagCode": "US",
      "locationId": "US_Colorado"
    },
    {
      "id": "1769032803118",
      "lat": 43.75952622348507,
      "lon": -103.45895809822197,
      "title": "24/7 irl stream in America ğŸ‡ºğŸ‡¸ Day 23 (Keystone, SD) pt 2",
      "videoLink": "https://www.youtube.com/watch?v=KMkgFZYZALg",
      "date": "2025-09-20",
      "emoji": "ğŸ“",
      "flagCode": "US",
      "locationId": "US_SouthDakota"
    },
    {
      "id": "1769032833537",
      "lat": 43.42088277474261,
      "lon": -103.27001112738348,
      "title": "24/7 irl stream in America ğŸ‡ºğŸ‡¸ Day 23 (Keystone, SD)",
      "videoLink": "https://www.youtube.com/watch?v=P6fN-0yyTug",
      "date": "2025-09-20",
      "emoji": "ğŸ“",
      "flagCode": "US",
      "locationId": "US_SouthDakota"
    }
  ],
  "exportedAt": "2026-01-21T22:01:14.862Z"
}